{"@id":"https://w3id.org/Mapping%20UK%20collections","type":"FeatureCollection","@context":"https://w3id.org/locolligo/contexts/linkedplaces.jsonld","features":[{"@id":"https://w3id.org/Mapping%20UK%20collections/78b4330e-a8b4-4aa4-841c-923e517dd7a9","type":"Feature","properties":{"title":"","name":"Bodleian Library","url":"https://www.bodleian.ox.ac.uk/collections-and-resources/solo"},"geometry":{"type":"Point","coordinates":[-1.254696,51.754061]}},{"@id":"https://w3id.org/Mapping%20UK%20collections/7221153a-0c5c-451c-b53c-df0320ecc12a","type":"Feature","properties":{"title":"","name":"Bristol Archives","url":"https://archives.bristol.gov.uk"},"geometry":{"type":"Point","coordinates":[-2.62246,51.447122]}},{"@id":"https://w3id.org/Mapping%20UK%20collections/e6527386-2c15-4534-8a4c-3ea8aaedc45e","type":"Feature","properties":{"title":"","name":"Brunel, University of London","url":"https://www.brunel.ac.uk/life/library/ArchivesAndSpecialCollections"},"geometry":{"type":"Point","coordinates":[-2.62246,51.447122]}},{"@id":"https://w3id.org/Mapping%20UK%20collections/a0d017a8-c247-4523-9260-5932ea587146","type":"Feature","properties":{"title":"","name":"Cambridge University Library","url":"https://www.lib.cam.ac.uk/search-and-find"},"geometry":{"type":"Point","coordinates":[0.108119,52.205137]}},{"@id":"https://w3id.org/Mapping%20UK%20collections/14e777a4-070c-46a2-88b7-533d57f1042c","type":"Feature","properties":{"title":"","name":"Churchill Archives Centre","url":"https://archives.chu.cam.ac.uk/collections/"},"geometry":{"type":"Point","coordinates":[0.099953,52.214161]}},{"@id":"https://w3id.org/Mapping%20UK%20collections/af36d4fc-6f74-4feb-9c52-35f3a218af93","type":"Feature","properties":{"title":"","name":"Durham University","url":"https://www.durham.ac.uk/departments/library/"},"geometry":{"type":"Point","coordinates":[-1.577051,54.774472]}},{"@id":"https://w3id.org/Mapping%20UK%20collections/8d619d4a-dae5-4449-82f1-86b9c12920dd","type":"Feature","properties":{"title":"","name":"Gloucestershire County Council (Gloucestershire Heritage Hub)","url":"https://catalogue.gloucestershire.gov.uk"},"geometry":{"type":"Point","coordinates":[-1.577051,54.774472]}},{"@id":"https://w3id.org/Mapping%20UK%20collections/20c98353-b3c2-4ba3-ac02-4e7ec2f8f9d7","type":"Feature","properties":{"title":"","name":"Historic Environment Scotland","url":"https://www.historicenvironment.scot/archives-and-research/archives-and-collections/"},"geometry":{"type":"Point","coordinates":[-3.179871,55.941]}},{"@id":"https://w3id.org/Mapping%20UK%20collections/e8ec8245-5a81-4ce4-b7e9-0f8b0ac39922","type":"Feature","properties":{"title":"","name":"Holocaust Centre North","url":"https://holocaustcentrenorth.org.uk/collections/archive/"},"geometry":{"type":"Point","coordinates":[-1.778009,53.642868]}},{"@id":"https://w3id.org/Mapping%20UK%20collections/77d50f93-d936-468f-a60d-5a4d7c28d59e","type":"Feature","properties":{"title":"","name":"Imperial War Museum London","url":"https://www.iwm.org.uk/collections"},"geometry":{"type":"Point","coordinates":[-0.108599,51.495931]}},{"@id":"https://w3id.org/Mapping%20UK%20collections/88a82780-2958-4d4a-a0ba-5d14169f6fe0","type":"Feature","properties":{"title":"","name":"Jersey Heritage","url":"https://catalogue.jerseyheritage.org"},"geometry":{"type":"Point","coordinates":[-2.097242,49.182864]}},{"@id":"https://w3id.org/Mapping%20UK%20collections/78b9ad45-e415-42b4-9edf-ba66799a1724","type":"Feature","properties":{"title":"","name":"King's College, Taunton","url":"https://www.kings-taunton.co.uk"},"geometry":{"type":"Point","coordinates":[-3.088413,51.008648]}},{"@id":"https://w3id.org/Mapping%20UK%20collections/79368db2-5ac1-49fb-a41f-faae74f99719","type":"Feature","properties":{"title":"","name":"Library of the Society of Friends","url":"https://www.quaker.org.uk/library"},"geometry":{"type":"Point","coordinates":[-0.131982,51.526535]}},{"@id":"https://w3id.org/Mapping%20UK%20collections/ffe1eeba-1d35-4664-a7c2-45105c780fee","type":"Feature","properties":{"title":"","name":"Liverpool Record Office","url":"https://liverpool.gov.uk/libraries/archives-family-history/archives-liverpool-record-office/"},"geometry":{"type":"Point","coordinates":[-0.238352,51.566481]}},{"@id":"https://w3id.org/Mapping%20UK%20collections/2f5a2145-8279-46eb-a306-171399b64e58","type":"Feature","properties":{"title":"","name":"Manx National Heritage","url":"https://manxnationalheritage.im/collections/"},"geometry":{"type":"Point","coordinates":[-4.481763,54.153727]}},{"@id":"https://w3id.org/Mapping%20UK%20collections/c90e201e-c27c-41bd-8d97-fd786c3e8fdc","type":"Feature","properties":{"title":"","name":"Museum of Liverpool","url":"https://www.liverpoolmuseums.org.uk/collections/museum-of-liverpool-collections"},"geometry":{"type":"Point","coordinates":[-4.585505,54.192249]}},{"@id":"https://w3id.org/Mapping%20UK%20collections/2cbdd0b8-0757-4f99-8bd0-b8b5d50e9f57","type":"Feature","properties":{"title":"","name":"Parkes Special Collections, University of Southampton","url":"https://library.soton.ac.uk/parkes"},"geometry":{"type":"Point","coordinates":[-1.396469,50.935166]}},{"@id":"https://w3id.org/Mapping%20UK%20collections/c7d1af93-f0f7-439f-b19a-96b9da9bbc56","type":"Feature","properties":{"title":"","name":"Public Records Office Northern Ireland","url":"https://www.nidirect.gov.uk/campaigns/public-record-office-northern-ireland-proni"},"geometry":{"type":"Point","coordinates":[-5.910704,54.604188]}},{"@id":"https://w3id.org/Mapping%20UK%20collections/fcacd73e-8177-41fb-9ff3-71e3974f1481","type":"Feature","properties":{"title":"","name":"Queen's University Belfast Special Collections","url":"https://www.qub.ac.uk/directorates/InformationServices/TheLibrary/SpecialCollections/"},"geometry":{"type":"Point","coordinates":[-5.931486,54.584753]}},{"@id":"https://w3id.org/Mapping%20UK%20collections/b993b42d-1991-41cb-98e8-a99d42d66da8","type":"Feature","properties":{"title":"","name":"Royal College of Physicians Archive","url":"https://history.rcp.ac.uk/collections/archives"},"geometry":{"type":"Point","coordinates":[-5.931486,54.584753]}},{"@id":"https://w3id.org/Mapping%20UK%20collections/6d67d3fd-a104-4551-8448-25f370b246a6","type":"Feature","properties":{"title":"","name":"Senate House Library","url":"https://www.london.ac.uk/about/services/senate-house-library/collections"},"geometry":{"type":"Point","coordinates":[-0.128234,51.521002]}},{"@id":"https://w3id.org/Mapping%20UK%20collections/c2f21e1c-021d-4ecc-aa7f-1e75ba96af47","type":"Feature","properties":{"title":"","name":"Soldiers of Oxfordshire Museum","url":"https://www.sofo.org.uk/collection/"},"geometry":{"type":"Point","coordinates":[-0.229597,51.848314]}},{"@id":"https://w3id.org/Mapping%20UK%20collections/2855dacd-3255-4891-8b51-b156f3cf44f7","type":"Feature","properties":{"title":"","name":"St Helens Archive Service","url":"https://www.sthelens.gov.uk/article/3145/Archive-and-Heritage"},"geometry":{"type":"Point","coordinates":[-2.734999,53.450034]}},{"@id":"https://w3id.org/Mapping%20UK%20collections/833765e3-b6d9-4931-8035-fc8787075439","type":"Feature","properties":{"title":"","name":"Suffolk Archives","url":"https://www.suffolkarchives.co.uk/collections/"},"geometry":{"type":"Point","coordinates":[1.163595,52.053265]}},{"@id":"https://w3id.org/Mapping%20UK%20collections/42b76738-9b04-4be3-a90d-45c5cba24c45","type":"Feature","properties":{"title":"","name":"Tate Galleries","url":"https://www.tate.org.uk/art/archive"},"geometry":{"type":"Point","coordinates":[-0.127538,51.490961]}},{"@id":"https://w3id.org/Mapping%20UK%20collections/f1501a50-95f9-4cb2-8413-abdb0ccdb355","type":"Feature","properties":{"title":"","name":"Templeman Library, University of Kent","url":"https://www.kent.ac.uk/library/special-collections"},"geometry":{"type":"Point","coordinates":[1.069023,51.2976]}},{"@id":"https://w3id.org/Mapping%20UK%20collections/e2624f6f-3a2e-4909-b6ee-c7c418f7f927","type":"Feature","properties":{"title":"","name":"The Box, Plymouth","url":"https://www.theboxplymouth.com/collections"},"geometry":{"type":"Point","coordinates":[-4.137448,50.373653]}},{"@id":"https://w3id.org/Mapping%20UK%20collections/55640938-b445-4c53-a852-764a0dbd61dd","type":"Feature","properties":{"title":"","name":"The British Library","url":"https://www.bl.uk/collection"},"geometry":{"type":"Point","coordinates":[-0.127692,51.529912]}},{"@id":"https://w3id.org/Mapping%20UK%20collections/bf3b5e6a-a641-4b84-9a18-38d3d929d750","type":"Feature","properties":{"title":"","name":"The British Psychoanalytical Society Archive","url":"https://psychoanalysis.org.uk"},"geometry":{"type":"Point","coordinates":[-0.195723,51.527094]}},{"@id":"https://w3id.org/Mapping%20UK%20collections/7032ebd9-a680-43c5-9ec7-d53b9e9d22b1","type":"Feature","properties":{"title":"","name":"The Glasgow School of Art","url":"https://gsaarchives.net"},"geometry":{"type":"Point","coordinates":[-4.263752,55.866264]}},{"@id":"https://w3id.org/Mapping%20UK%20collections/3e3ddc60-a85b-44ca-91ba-e25f62b0929d","type":"Feature","properties":{"title":"","name":"The Keep, University of Sussex","url":"https://www.sussex.ac.uk/library/special-collections/keep"},"geometry":{"type":"Point","coordinates":[-4.371099,55.901665]}},{"@id":"https://w3id.org/Mapping%20UK%20collections/c6a3f6b7-3584-45c6-be0e-9fe51cef0b26","type":"Feature","properties":{"title":"","name":"The London Archives","url":"https://www.thelondonarchives.org/your-research/researching-the-collections"},"geometry":{"type":"Point","coordinates":[-0.10728,51.525159]}},{"@id":"https://w3id.org/Mapping%20UK%20collections/e5508b9f-cab3-41e4-ab7e-51b3fd456318","type":"Feature","properties":{"title":"","name":"The National Archives","url":"https://discovery.nationalarchives.gov.uk"},"geometry":{"type":"Point","coordinates":[-0.27921,51.481115]}},{"@id":"https://w3id.org/Mapping%20UK%20collections/ed2e7678-f99c-41f7-976f-60283ac613e5","type":"Feature","properties":{"title":"","name":"The Salvation Army","url":"https://www.salvationarmy.org.uk/about-us/international-heritage-centre/archive-catalogue"},"geometry":{"type":"Point","coordinates":[-0.088407,51.467728]}},{"@id":"https://w3id.org/Mapping%20UK%20collections/300aaad4-eb6b-4974-8f99-5c7aebbb175c","type":"Feature","properties":{"title":"","name":"The Warburg Institute","url":"https://warburg.sas.ac.uk/library-collections"},"geometry":{"type":"Point","coordinates":[-0.130339,51.523263]}},{"@id":"https://w3id.org/Mapping%20UK%20collections/db724049-1911-475b-9ed5-a67fa8f082fb","type":"Feature","properties":{"title":"","name":"The Wiener Holocaust Library","url":"https://wienerholocaustlibrary.org/what-we-have/search-the-catalogue/"},"geometry":{"type":"Point","coordinates":[-0.127996,51.521606]}},{"@id":"https://w3id.org/Mapping%20UK%20collections/ffe90f23-e720-407a-afa5-3d3131525f67","type":"Feature","properties":{"title":"","name":"Topolski Studio","url":"https://topolski.org"},"geometry":{"type":"Point","coordinates":[-0.116032,51.504923]}},{"@id":"https://w3id.org/Mapping%20UK%20collections/0d2b7f0d-879b-4bc3-8605-08dba4b49842","type":"Feature","properties":{"title":"","name":"Tower Hamlets Local History Library and Archives","url":"https://www.towerhamlets.gov.uk/lgnl/leisure_and_culture/local_history/local_history__archives/local_history__archives.aspx"},"geometry":{"type":"Point","coordinates":[-0.042153,51.523948]}},{"@id":"https://w3id.org/Mapping%20UK%20collections/40f1aa0a-1029-419a-8902-38ed744fef09","type":"Feature","properties":{"title":"","name":"University of East Anglia","url":"https://www.uea.ac.uk/library/archives-and-special-collections"},"geometry":{"type":"Point","coordinates":[1.240542,52.622252]}},{"@id":"https://w3id.org/Mapping%20UK%20collections/df6327b7-3a90-4e71-884c-1950c1ac9b68","type":"Feature","properties":{"title":"","name":"University of Leicester","url":"https://le.ac.uk/library/special-collections"},"geometry":{"type":"Point","coordinates":[-1.124665,52.621927]}},{"@id":"https://w3id.org/Mapping%20UK%20collections/b9406267-9e36-42cf-bd3d-733e909aacb4","type":"Feature","properties":{"title":"","name":"Wilhelmina Barns-Graham Trust","url":"https://www.barns-grahamtrust.org.uk"},"geometry":{"type":"Point","coordinates":[-3.179754,55.96004]}}],"indexing":{"@type":"Dataset","name":"Mapping UK collections","description":"","license":"https://creativecommons.org/licenses/by/4.0/","identifier":"https://w3id.org/Mapping%20UK%20collections","temporalCoverage":"1066/2022","spatialCoverage":{"@type":"GeoShape","box":"0.580101 0.00149 60.355 9.78667","geo":{"@type":"GeoShape","box":"49.182864 0.042153 55.96004 5.931486"}}}}